{"type":"FeatureCollection",
    "features":[
        {"type":"Feature",
            "properties":{"title":"Virtual", "addressLine1":"1050 Crow Canyon Road","addressLine2":"San Ramon (CA)","zip":"12346", "tel": "(0123) 45678"},
            "geometry":{"type":"Point","coordinates":[-121.975193,37.777120]},
            "metadata":{"type":"virtual","state":"default", "icon":"\uf05a", "iconPos":{"x":-6.5, "y": -18.5}}},
        {"type":"Feature",
            "properties":{"title":"Virtual Small Warning", "addressLine1":"1 Alcosta Blvd","addressLine2":"San Ramon (CA)","zip":"12345", "tel": "(0123) 45678"},
            "geometry":{"type":"Point","coordinates":[-121.964421,37.781428]},
            "metadata":{"type":"virtual-mini", "state": "warning"}},
        {"type":"Feature",
            "properties":{"title":"My Position", "addressLine1":"105 Deerwood Road","addressLine2":"San Ramon (CA)","zip":"12347", "tel": "(0123) 45678"},
            "geometry":{"type":"Point","coordinates":[-121.984806,37.778816]},
            "metadata":{"type":"myposition"}, "icon":"\uf0d1", "iconPos":{"x":-7.25, "y": 4.5}},
        {"type":"Feature",
            "properties":{"title":"Notification", "addressLine1":"2600 Shadow Mountain Dr","addressLine2":"San Ramon, (CA)","zip":"94583"},
            "geometry":{"type":"Point","coordinates":[-121.980033,37.7706]},
            "metadata":{"type":"notification"}, "icon":"\uf0d1", "iconPos":{"x":-7.25, "y": 4.5}},
        {"type":"Feature",
            "properties":{"title":"Notification Small", "addressLine1":"215-217 Reflections Dr","addressLine2":"San Ramon, (CA)","zip":"94583"},
            "geometry":{"type":"Point","coordinates":[-121.948264,37.76205]},
            "metadata":{"type":"notification-mini"}},
        {"type":"Feature",
            "properties":{"title":"Info OK", "addressLine1":"2600 Bishop Dr","addressLine2":"San Ramon, (CA)","zip":"94583"},
            "geometry":{"type":"Point","coordinates":[-121.965662,37.762958]},
            "metadata":{"type":"info", "state":"success", "icon":"\uf015", "iconPos":{"x":-7.25, "y": 4.5}}},
        {"type":"Feature",
            "properties":{"title":"Info Small", "addressLine1":"2727-2735 Derby Dr","addressLine2":"San Ramon, (CA)","zip":"94583"},
            "geometry":{"type":"Point","coordinates":[-121.975019,37.755258]},
            "metadata":{"type":"info-mini"}},
        {"type":"Feature",
            "properties":{"title":"Moving Highlight", "addressLine1":"501-599 Estancia Ct","addressLine2":"San Ramon, (CA)","zip":"94583"},
            "geometry":{"type":"Point","coordinates":[-121.997681,37.767631]},
            "metadata":{"type":"moving", "state":"highlight", "icon":"\uf0d1", "iconPos":{"x":-9.25, "y": 4.5}}},
        {"type":"Feature",
            "properties":{"title":"Moving Small", "addressLine1":"129 Lucy Ln","addressLine2":"San Ramon, (CA)","zip":"94582"},
            "geometry":{"type":"Point","coordinates":[-121.923159,37.768391]},
            "metadata":{"type":"moving-mini"}},
        {"type":"Feature",
            "properties":{"title":"Default Small", "addressLine1":"796 Lakemont Pl","addressLine2":"San Ramon, (CA)","zip":"94582"},
            "geometry":{"type":"Point","coordinates":[-121.951341,37.778565]},
            "metadata":{"type":"default-mini"}},
        {"type":"Feature",
            "properties":{"title":"Default Alert", "addressLine1":"6100 Hedgecrest Cir","addressLine2":"San Ramon, (CA)","zip":"94582"},
            "geometry":{"type":"Point","coordinates":[-121.932465,37.773354]},
            "metadata":{"type":"default", "state":"important", "icon":"\uf0e7", "iconPos":{"x":-2.75, "y": 4.5}}}
  ]
}
